<?xml version="1.0" encoding="UTF-8"?><FDSNStationXML xmlns="http://www.fdsn.org/xml/station/1" schemaVersion="1.2"><Source>SeisComP</Source><Sender>ANU-RSES</Sender><Created>2025-12-01T03:17:59.351159Z</Created><Network code="OZ" startDate="1976-01-01T00:00:00Z"><Comment id="1"><Value>Seismology Research Centre, Melbourne, Australia</Value><BeginEffectiveTime>1976-01-01T00:00:00Z</BeginEffectiveTime><Author><Name>Adam Pascale</Name><Agency>SRC</Agency><Email>quake@src.com.au</Email></Author></Comment><Operator><Agency>SRC</Agency><Contact/></Operator><Station code="HKER" startDate="2000-11-02T00:00:00Z"><Latitude>-31.7642</Latitude><Longitude>138.55251</Longitude><Elevation>321</Elevation><Site><Name>Hawker</Name></Site><Equipment><Type>Seismograph</Type><Description>6th Generation Kelunji Seismic Data Logger</Description><Manufacturer>Seismology Research Centre</Manufacturer><Model>Echo Pro</Model></Equipment><CreationDate>2000-11-02T00:00:00Z</CreationDate></Station><Station code="LEAH" startDate="2003-07-15T00:00:00Z"><Latitude>-42.30272</Latitude><Longitude>146.45163</Longitude><Elevation>600</Elevation><Site><Name>Tarraleah</Name></Site><Equipment><Type>Seismograph</Type><Description>7th Generation Kelunji Seismic Data Logger</Description><Manufacturer>Seismology Research Centre</Manufacturer><Model>Gecko</Model><SerialNumber>02000394</SerialNumber></Equipment><CreationDate>2003-07-15T00:00:00Z</CreationDate></Station><Station code="DROM" startDate="2003-01-25T00:00:00Z"><Latitude>-38.34814</Latitude><Longitude>144.95979</Longitude><Elevation>151</Elevation><Site><Name>Dromana</Name></Site><Equipment><Type>Seismograph</Type><Description>6th Generation Kelunji Seismic Data Logger</Description><Manufacturer>Seismology Research Centre</Manufacturer><Model>Echo Pro</Model></Equipment><CreationDate>2003-01-25T00:00:00Z</CreationDate></Station><Station code="KORUM" startDate="2009-03-15T00:00:00Z"><Latitude>-38.40644</Latitude><Longitude>145.85085</Longitude><Elevation>354</Elevation><Site><Name>Korumburra</Name></Site><Equipment><Type>Seismograph</Type><Description>6th Generation Kelunji Seismic Data Logger</Description><Manufacturer>Seismology Research Centre</Manufacturer><Model>Echo Pro</Model></Equipment><CreationDate>2009-03-15T00:00:00Z</CreationDate></Station><Station code="CCRM" startDate="1989-05-02T00:00:00Z"><Latitude>-36.98907</Latitude><Longitude>143.97353</Longitude><Elevation>230</Elevation><Site><Name>Cairn Curren</Name></Site><Equipment><Type>Seismograph</Type><Description>7th Generation Kelunji Seismic Data Logger</Description><Manufacturer>Seismology Research Centre</Manufacturer><Model>Gecko</Model><SerialNumber>02000266</SerialNumber></Equipment><CreationDate>1989-05-02T00:00:00Z</CreationDate></Station><Station code="AWOON" startDate="2008-07-02T00:00:00Z"><Latitude>-24.07732</Latitude><Longitude>151.31468</Longitude><Elevation>92</Elevation><Site><Name>Awoonga Dam Quarry</Name></Site><Equipment><Type>Seismograph</Type><Description>7th Generation Kelunji Seismic Data Logger</Description><Manufacturer>Seismology Research Centre</Manufacturer><Model>Gecko</Model><SerialNumber>02000384</SerialNumber></Equipment><CreationDate>2008-07-02T00:00:00Z</CreationDate></Station><Station code="GLADS" startDate="2008-07-01T00:00:00Z"><Latitude>-23.86989</Latitude><Longitude>151.26808</Longitude><Elevation>118</Elevation><Site><Name>Gladstone</Name></Site><Equipment><Type>Seismograph</Type><Description>7th Generation Kelunji Seismic Data Logger</Description><Manufacturer>Seismology Research Centre</Manufacturer><Model>Gecko</Model><SerialNumber>02000387</SerialNumber></Equipment><CreationDate>2008-07-01T00:00:00Z</CreationDate></Station><Station code="CETH" startDate="2010-04-15T00:00:00Z"><Latitude>-41.47972</Latitude><Longitude>146.13287</Longitude><Elevation>220</Elevation><Site><Name>Cethana</Name></Site><Equipment><Type>Seismograph</Type><Description>7th Generation Kelunji Seismic Data Logger</Description><Manufacturer>Seismology Research Centre</Manufacturer><Model>Gecko</Model><SerialNumber>02000395</SerialNumber></Equipment><CreationDate>2010-04-15T00:00:00Z</CreationDate></Station><Station code="JEER" startDate="2015-10-15T00:00:00Z"><Latitude>-38.3476</Latitude><Longitude>146.41696</Longitude><Elevation>236</Elevation><Site><Name>Jeeralang Junction</Name></Site><Equipment><Type>Seismograph</Type><Description>7th Generation Kelunji Seismic Data Logger</Description><Manufacturer>Seismology Research Centre</Manufacturer><Model>Gecko</Model><SerialNumber>02000288</SerialNumber></Equipment><CreationDate>2015-10-15T00:00:00Z</CreationDate></Station><Station code="HML1" startDate="2007-03-28T00:00:00Z"><Latitude>-34.40335</Latitude><Longitude>138.58887</Longitude><Elevation>73</Elevation><Site><Name>Hamley Bridge</Name></Site><Equipment><Type>Seismograph</Type><Description>6th Generation Kelunji Seismic Data Logger</Description><Manufacturer>Seismology Research Centre</Manufacturer><Model>Echo Pro</Model></Equipment><CreationDate>2007-03-28T00:00:00Z</CreationDate></Station><Station code="GOOGA" startDate="2021-02-23T00:00:00Z"><Latitude>-35.42312</Latitude><Longitude>149.25754</Longitude><Elevation>738</Elevation><Site><Name>Googong Dam Accelerograph</Name></Site><Equipment><Type>Seismograph</Type><Description>7th Generation Kelunji Seismic Data Logger</Description><Manufacturer>Seismology Research Centre</Manufacturer><Model>Gecko</Model><SerialNumber>02000586</SerialNumber></Equipment><CreationDate>2021-02-23T00:00:00Z</CreationDate></Station><Station code="DTMM" startDate="1989-06-08T00:00:00Z"><Latitude>-36.52813</Latitude><Longitude>147.46539</Longitude><Elevation>432</Elevation><Site><Name>Dartmouth Reg Dam</Name></Site><Equipment><Type>Seismograph</Type><Description>7th Generation Kelunji Seismic Data Logger</Description><Manufacturer>Seismology Research Centre</Manufacturer><Model>Gecko</Model><SerialNumber>01000109</SerialNumber></Equipment><CreationDate>1989-06-08T00:00:00Z</CreationDate></Station><Station code="MLWM" startDate="1985-06-19T00:00:00Z"><Latitude>-37.13624</Latitude><Longitude>145.51147</Longitude><Elevation>280</Elevation><Site><Name>Molesworth</Name></Site><Equipment><Type>Seismograph</Type><Description>7th Generation Kelunji Seismic Data Logger</Description><Manufacturer>Seismology Research Centre</Manufacturer><Model>Gecko</Model><SerialNumber>02000947</SerialNumber></Equipment><CreationDate>1985-06-19T00:00:00Z</CreationDate></Station><Station code="GRASY" startDate="2018-08-02T00:00:00Z"><Latitude>-40.08652</Latitude><Longitude>144.01093</Longitude><Elevation>67</Elevation><Site><Name>Grassy, King Island</Name></Site><Equipment><Type>Seismograph</Type><Description>7th Generation Kelunji Seismic Data Logger</Description><Manufacturer>Seismology Research Centre</Manufacturer><Model>Gecko</Model><SerialNumber>01234567</SerialNumber></Equipment><CreationDate>2018-08-02T00:00:00Z</CreationDate></Station><Station code="UTT" startDate="1993-07-01T00:00:00Z"><Latitude>-34.8215</Latitude><Longitude>138.73669</Longitude><Elevation>300</Elevation><Site><Name>Tea Tree Gully</Name></Site><Equipment><Type>Seismograph</Type><Description>6th Generation Kelunji Seismic Data Logger</Description><Manufacturer>Seismology Research Centre</Manufacturer><Model>Echo Pro</Model></Equipment><CreationDate>1993-07-01T00:00:00Z</CreationDate></Station><Station code="POAT" startDate="2003-07-15T00:00:00Z"><Latitude>-41.81715</Latitude><Longitude>146.90329</Longitude><Elevation>851</Elevation><Site><Name>Poatina</Name></Site><Equipment><Type>Seismograph</Type><Description>7th Generation Kelunji Seismic Data Logger</Description><Manufacturer>Seismology Research Centre</Manufacturer><Model>Gecko</Model><SerialNumber>02000393</SerialNumber></Equipment><CreationDate>2003-07-15T00:00:00Z</CreationDate></Station><Station code="EASTN" startDate="2008-07-01T00:00:00Z"><Latitude>-23.86409</Latitude><Longitude>150.96468</Longitude><Elevation>139</Elevation><Site><Name>East End</Name></Site><Equipment><Type>Seismograph</Type><Description>7th Generation Kelunji Seismic Data Logger</Description><Manufacturer>Seismology Research Centre</Manufacturer><Model>Gecko</Model><SerialNumber>02000407</SerialNumber></Equipment><CreationDate>2008-07-01T00:00:00Z</CreationDate></Station><Station code="CLV2" startDate="2014-08-26T00:00:00Z"><Latitude>-33.6823</Latitude><Longitude>136.51691</Longitude><Elevation>236</Elevation><Site><Name>Cleve</Name></Site><Equipment><Type>Seismograph</Type><Description>6th Generation Kelunji Seismic Data Logger</Description><Manufacturer>Seismology Research Centre</Manufacturer><Model>Echo Pro</Model></Equipment><CreationDate>2014-08-26T00:00:00Z</CreationDate></Station><Station code="HBART" startDate="2019-01-30T00:00:00Z"><Latitude>-42.84291</Latitude><Longitude>147.34872</Longitude><Elevation>88</Elevation><Site><Name>Hobart</Name></Site><Equipment><Type>Seismograph</Type><Description>7th Generation Kelunji Seismic Data Logger</Description><Manufacturer>Seismology Research Centre</Manufacturer><Model>Gecko</Model><SerialNumber>02000207</SerialNumber></Equipment><CreationDate>2019-01-30T00:00:00Z</CreationDate></Station><Station code="BUCHN" startDate="2018-02-08T00:00:00Z"><Latitude>-37.52916</Latitude><Longitude>148.0961</Longitude><Elevation>260</Elevation><Site><Name>Buchan</Name></Site><Equipment><Type>Seismograph</Type><Description>7th Generation Kelunji Seismic Data Logger</Description><Manufacturer>Seismology Research Centre</Manufacturer><Model>Gecko</Model><SerialNumber>02000791</SerialNumber></Equipment><CreationDate>2018-02-08T00:00:00Z</CreationDate></Station><Station code="GOOG" startDate="2009-09-01T00:00:00Z"><Latitude>-35.42313</Latitude><Longitude>149.25749</Longitude><Elevation>725</Elevation><Site><Name>Googong</Name></Site><Equipment><Type>Seismograph</Type><Description>7th Generation Kelunji Seismic Data Logger</Description><Manufacturer>Seismology Research Centre</Manufacturer><Model>Gecko</Model><SerialNumber>02000585</SerialNumber></Equipment><CreationDate>2009-09-01T00:00:00Z</CreationDate></Station><Station code="GLMM" startDate="1999-02-12T00:00:00Z"><Latitude>-37.90266</Latitude><Longitude>146.79897</Longitude><Elevation>113</Elevation><Site><Name>Glenmaggie Dam</Name></Site><Equipment><Type>Seismograph</Type><Description>7th Generation Kelunji Seismic Data Logger</Description><Manufacturer>Seismology Research Centre</Manufacturer><Model>Gecko</Model><SerialNumber>02000231</SerialNumber></Equipment><CreationDate>1999-02-12T00:00:00Z</CreationDate></Station><Station code="FRTM" startDate="1981-10-24T00:00:00Z"><Latitude>-38.53194</Latitude><Longitude>143.71765</Longitude><Elevation>247</Elevation><Site><Name>Forrest</Name></Site><Equipment><Type>Seismograph</Type><Description>6th Generation Kelunji Seismic Data Logger</Description><Manufacturer>Seismology Research Centre</Manufacturer><Model>Echo Pro</Model></Equipment><CreationDate>1981-10-24T00:00:00Z</CreationDate></Station><Station code="HOPM" startDate="1983-07-05T00:00:00Z"><Latitude>-35.99473</Latitude><Longitude>144.20587</Longitude><Elevation>135</Elevation><Site><Name>Mt Hope</Name></Site><Equipment><Type>Seismograph</Type><Description>7th Generation Kelunji Seismic Data Logger</Description><Manufacturer>Seismology Research Centre</Manufacturer><Model>Gecko</Model><SerialNumber>02000181</SerialNumber></Equipment><CreationDate>1983-07-05T00:00:00Z</CreationDate></Station><Station code="ROBE" startDate="2012-12-11T00:00:00Z"><Latitude>-37.1472</Latitude><Longitude>139.87424</Longitude><Elevation>10</Elevation><Site><Name>Robe</Name></Site><Equipment><Type>Seismograph</Type><Description>6th Generation Kelunji Seismic Data Logger</Description><Manufacturer>Seismology Research Centre</Manufacturer><Model>Echo Pro</Model></Equipment><CreationDate>2012-12-11T00:00:00Z</CreationDate></Station><Station code="MARG" startDate="2003-07-15T00:00:00Z"><Latitude>-41.99952</Latitude><Longitude>145.55162</Longitude><Elevation>700</Elevation><Site><Name>Lake Margaret</Name></Site><Equipment><Type>Seismograph</Type><Description>7th Generation Kelunji Seismic Data Logger</Description><Manufacturer>Seismology Research Centre</Manufacturer><Model>Gecko</Model><SerialNumber>02000391</SerialNumber></Equipment><CreationDate>2003-07-15T00:00:00Z</CreationDate></Station><Station code="GOGM" startDate="1989-07-19T00:00:00Z"><Latitude>-36.88672</Latitude><Longitude>142.40099</Longitude><Elevation>279</Elevation><Site><Name>Grampians</Name></Site><Equipment><Type>Seismograph</Type><Description>7th Generation Kelunji Seismic Data Logger</Description><Manufacturer>Seismology Research Centre</Manufacturer><Model>Gecko</Model><SerialNumber>02000208</SerialNumber></Equipment><CreationDate>1989-07-19T00:00:00Z</CreationDate></Station><Station code="MILD" startDate="2013-09-25T00:00:00Z"><Latitude>-34.25915</Latitude><Longitude>142.05571</Longitude><Elevation>54</Elevation><Site><Name>Mildura</Name></Site><Equipment><Type>Seismograph</Type><Description>6th Generation Kelunji Seismic Data Logger</Description><Manufacturer>Seismology Research Centre</Manufacturer><Model>Echo Pro</Model></Equipment><CreationDate>2013-09-25T00:00:00Z</CreationDate></Station><Station code="COTT" startDate="2009-09-01T00:00:00Z"><Latitude>-35.32228</Latitude><Longitude>148.9463</Longitude><Elevation>535</Elevation><Site><Name>Cotter Dam</Name></Site><Equipment><Type>Seismograph</Type><Description>7th Generation Kelunji Seismic Data Logger</Description><Manufacturer>Seismology Research Centre</Manufacturer><Model>Gecko</Model><SerialNumber>02000584</SerialNumber></Equipment><CreationDate>2009-09-01T00:00:00Z</CreationDate></Station><Station code="ROWM" startDate="1999-01-29T00:00:00Z"><Latitude>-37.80614</Latitude><Longitude>144.29176</Longitude><Elevation>374</Elevation><Site><Name>Rowsley</Name></Site><Equipment><Type>Seismograph</Type><Description>7th Generation Kelunji Seismic Data Logger</Description><Manufacturer>Seismology Research Centre</Manufacturer><Model>Gecko</Model><SerialNumber>02000940</SerialNumber></Equipment><CreationDate>1999-01-29T00:00:00Z</CreationDate></Station><Station code="WAMB" startDate="2003-01-01T00:00:00Z"><Latitude>-36.1912</Latitude><Longitude>148.88293</Longitude><Elevation>1342</Elevation><Site><Name>Wambrook</Name></Site><Equipment><Type>Seismograph</Type><Description>7th Generation Kelunji Seismic Data Logger</Description><Manufacturer>Seismology Research Centre</Manufacturer><Model>Gecko</Model><SerialNumber>02000382</SerialNumber></Equipment><CreationDate>2003-01-01T00:00:00Z</CreationDate></Station><Station code="TOT" startDate="1990-12-12T00:00:00Z"><Latitude>-37.82313</Latitude><Longitude>146.40738</Longitude><Elevation>708</Elevation><Site><Name>Thomson Abutment Tower</Name></Site><Equipment><Type>Seismograph</Type><Description>7th Generation Kelunji Seismic Data Logger</Description><Manufacturer>Seismology Research Centre</Manufacturer><Model>Gecko</Model><SerialNumber>02000946</SerialNumber></Equipment><CreationDate>1990-12-12T00:00:00Z</CreationDate></Station><Station code="WALR" startDate="2018-07-20T00:00:00Z"><Latitude>-33.9598</Latitude><Longitude>137.6221</Longitude><Elevation>17</Elevation><Site><Name>Wallaroo</Name></Site><Equipment><Type>Seismograph</Type><Description>7th Generation Kelunji Seismic Data Logger</Description><Manufacturer>Seismology Research Centre</Manufacturer><Model>Echo Pro</Model></Equipment><CreationDate>2018-07-20T00:00:00Z</CreationDate></Station><Station code="BOGA" startDate="2014-05-15T00:00:00Z"><Latitude>-35.547</Latitude><Longitude>143.57532</Longitude><Elevation>96</Elevation><Site><Name>Lake Boga</Name></Site><Equipment><Type>Seismograph</Type><Description>7th Generation Kelunji Seismic Data Logger</Description><Manufacturer>Seismology Research Centre</Manufacturer><Model>Gecko</Model><SerialNumber>02000205</SerialNumber></Equipment><CreationDate>2014-05-15T00:00:00Z</CreationDate></Station><Station code="WILL" startDate="2000-07-26T00:00:00Z"><Latitude>-38.3406</Latitude><Longitude>146.73599</Longitude><Elevation>428</Elevation><Site><Name>Willung South</Name></Site><Equipment><Type>Seismograph</Type><Description>7th Generation Kelunji Seismic Data Logger</Description><Manufacturer>Seismology Research Centre</Manufacturer><Model>Gecko</Model><SerialNumber>02001162</SerialNumber></Equipment><CreationDate>2000-07-26T00:00:00Z</CreationDate></Station><Station code="SRCHQ" startDate="2018-11-22T00:00:00Z"><Latitude>-37.81905</Latitude><Longitude>145.01112</Longitude><Elevation>20</Elevation><Site><Name>SRC 141 Palmer St Richmond</Name></Site><Equipment><Type>Seismograph</Type><Description>6th Generation Kelunji Seismic Data Logger</Description><Manufacturer>Seismology Research Centre</Manufacturer><Model>Echo Pro</Model></Equipment><CreationDate>2018-11-22T00:00:00Z</CreationDate></Station><Station code="WILM" startDate="2021-10-06T00:00:00Z"><Latitude>-32.66918</Latitude><Longitude>138.15672</Longitude><Elevation>294</Elevation><Site><Name>Wilmington</Name></Site><Equipment><Type>Seismograph</Type><Description>6th Generation Kelunji Seismic Data Logger</Description><Manufacturer>Seismology Research Centre</Manufacturer><Model>Echo Pro</Model></Equipment><CreationDate>2021-10-06T00:00:00Z</CreationDate></Station><Station code="WORN" startDate="2014-05-13T00:00:00Z"><Latitude>-37.9017</Latitude><Longitude>142.786</Longitude><Elevation>236</Elevation><Site><Name>Woorndoo</Name></Site><Equipment><Type>Seismograph</Type><Description>7th Generation Kelunji Seismic Data Logger</Description><Manufacturer>Seismology Research Centre</Manufacturer><Model>Gecko</Model><SerialNumber>02001161</SerialNumber></Equipment><CreationDate>2014-05-13T00:00:00Z</CreationDate></Station><Station code="MRAT" startDate="2007-03-06T00:00:00Z"><Latitude>-34.62973</Latitude><Longitude>137.6256</Longitude><Elevation>112</Elevation><Site><Name>Mount Rat</Name></Site><Equipment><Type>Seismograph</Type><Description>6th Generation Kelunji Seismic Data Logger</Description><Manufacturer>Seismology Research Centre</Manufacturer><Model>Unknown</Model></Equipment><CreationDate>2007-03-06T00:00:00Z</CreationDate></Station><Station code="CDNM" startDate="1996-04-01T00:00:00Z"><Latitude>-37.94652</Latitude><Longitude>145.42525</Longitude><Elevation>244</Elevation><Site><Name>Cardinia Reservoir</Name></Site><Equipment><Type>Seismograph</Type><Description>6th Generation Kelunji Seismic Data Logger</Description><Manufacturer>Seismology Research Centre</Manufacturer><Model>Echo Pro</Model></Equipment><CreationDate>1996-04-01T00:00:00Z</CreationDate></Station><Station code="CURRY" startDate="2016-12-18T00:00:00Z"><Latitude>-41.09589</Latitude><Longitude>146.95012</Longitude><Elevation>106</Elevation><Site><Name>Curries River</Name></Site><Equipment><Type>Seismograph</Type><Description>7th Generation Kelunji Seismic Data Logger</Description><Manufacturer>Seismology Research Centre</Manufacturer><Model>Gecko</Model><SerialNumber>0100010b</SerialNumber></Equipment><CreationDate>2016-12-18T00:00:00Z</CreationDate></Station><Station code="TPSO" startDate="2018-04-28T00:00:00Z"><Latitude>-35.4894</Latitude><Longitude>138.63725</Longitude><Elevation>74</Elevation><Site><Name>Victor Harbor</Name></Site><Equipment><Type>Seismograph</Type><Description>6th Generation Kelunji Seismic Data Logger</Description><Manufacturer>Seismology Research Centre</Manufacturer><Model>Echo Pro</Model></Equipment><CreationDate>2018-04-28T00:00:00Z</CreationDate></Station><Station code="MR2A" startDate="1996-01-01T00:00:00Z"><Latitude>-36.2392</Latitude><Longitude>148.1806</Longitude><Elevation>595</Elevation><Site><Name>Murray 2 Downstream</Name></Site><Equipment><Type>Seismograph</Type><Description>6th Generation Kelunji Seismic Data Logger</Description><Manufacturer>Seismology Research Centre</Manufacturer><Model>Echo Pro</Model></Equipment><CreationDate>1996-01-01T00:00:00Z</CreationDate></Station></Network></FDSNStationXML>
